entry-date,organisation,site,site-address,site-plan-url,deliverable,ownership,planning-permission-status,planning-permission-type,hazardous-substances,latitude,longitude,hectares,minimum-net-dwellings,maximum-net-dwellings,start-date,end-date,resource
2017-11-15,local-authority-eng:STA,"128 North Walls, Stafford","128 North Walls, Stafford",http://www.staffordbc.gov.uk/live/Documents/Planning%20Policy/Brownfield%20Land%20Register/Brownfield-Land-Register-Site-Plans.pdf,yes,not owned by a public authority,permissioned,full planning permission,,52.80695,-2.112711,0.02,,,2017-11-15,,61239efef1dba3bb2d89a7a4f6e1260c13a7b12cdd9804243e04de18e272ca7a
2017-11-15,local-authority-eng:STA,"36 Rowley Street, Stafford","36 Rowley Street, Stafford",http://www.staffordbc.gov.uk/live/Documents/Planning%20Policy/Brownfield%20Land%20Register/Brownfield-Land-Register-Site-Plans.pdf,yes,not owned by a public authority,permissioned,full planning permission,,52.815707,-2.119677,0.03,,,2017-11-15,,61239efef1dba3bb2d89a7a4f6e1260c13a7b12cdd9804243e04de18e272ca7a
2017-11-15,local-authority-eng:STA,"69-70 Foregate Street, Stafford","69-70 Foregate Street, Stafford",http://www.staffordbc.gov.uk/live/Documents/Planning%20Policy/Brownfield%20Land%20Register/Brownfield-Land-Register-Site-Plans.pdf,yes,not owned by a public authority,permissioned,full planning permission,,52.810838,-2.119794,0.13,,,2017-11-15,,61239efef1dba3bb2d89a7a4f6e1260c13a7b12cdd9804243e04de18e272ca7a
2017-11-15,local-authority-eng:STA,"Areva Fairway, Stafford","Areva Fairway, Stafford",http://www.staffordbc.gov.uk/live/Documents/Planning%20Policy/Brownfield%20Land%20Register/Brownfield-Land-Register-Site-Plans.pdf,yes,not owned by a public authority,permissioned,reserved matters approval,,52.801674,-2.090787,7.52,,,2017-11-15,,61239efef1dba3bb2d89a7a4f6e1260c13a7b12cdd9804243e04de18e272ca7a
2017-11-15,local-authority-eng:STA,"CC4 Greengate Street, Stafford","CC4 Greengate Street, Stafford",http://www.staffordbc.gov.uk/live/Documents/Planning%20Policy/Brownfield%20Land%20Register/Brownfield-Land-Register-Site-Plans.pdf,yes,not owned by a public authority,permissioned,full planning permission,,52.806732,-2.116871,0.03,,,2017-11-15,,61239efef1dba3bb2d89a7a4f6e1260c13a7b12cdd9804243e04de18e272ca7a
2017-11-15,local-authority-eng:STA,"Former Castleworks , Castle Street, Stafford","Former Castleworks, Castle Street, Stafford",http://www.staffordbc.gov.uk/live/Documents/Planning%20Policy/Brownfield%20Land%20Register/Brownfield-Land-Register-Site-Plans.pdf,yes,not owned by a public authority,permissioned,reserved matters approval,,52.805975,-2.128406,3.77,,,2017-11-15,,61239efef1dba3bb2d89a7a4f6e1260c13a7b12cdd9804243e04de18e272ca7a
2017-11-15,local-authority-eng:STA,"Land adjacent to Yew Tree House, Egg Lane, Hixon","Land adjacent to Yew Tree House, Egg Lane, Hixon",http://www.staffordbc.gov.uk/live/Documents/Planning%20Policy/Brownfield%20Land%20Register/Brownfield-Land-Register-Site-Plans.pdf,yes,not owned by a public authority,permissioned,outline planning permission,,52.829451,-1.995586,0.16,,,2017-11-15,,61239efef1dba3bb2d89a7a4f6e1260c13a7b12cdd9804243e04de18e272ca7a
2017-11-15,local-authority-eng:STA,"Land at Elms Business Centre Phase 2, Main Road, Great Haywood","Land at Elms Business Centre Phase 2, Main Road, Great Haywood",http://www.staffordbc.gov.uk/live/Documents/Planning%20Policy/Brownfield%20Land%20Register/Brownfield-Land-Register-Site-Plans.pdf,yes,not owned by a public authority,permissioned,full planning permission,,52.802114,-2.006571,0.2,,,2017-11-15,,61239efef1dba3bb2d89a7a4f6e1260c13a7b12cdd9804243e04de18e272ca7a
2017-11-15,local-authority-eng:STA,"Land at Elms Business Centre, Main Road, Great Haywood","Land at Elms Business Centre, Main Road, Great Haywood",http://www.staffordbc.gov.uk/live/Documents/Planning%20Policy/Brownfield%20Land%20Register/Brownfield-Land-Register-Site-Plans.pdf,yes,not owned by a public authority,permissioned,full planning permission,,52.802585,-2.006691,0.33,,,2017-11-15,,61239efef1dba3bb2d89a7a4f6e1260c13a7b12cdd9804243e04de18e272ca7a
2017-11-15,local-authority-eng:STA,"Land at Former Carers Centre, Austin Friars, Stafford","Land at Former Carers Centre, Austin Friars, Stafford",http://www.staffordbc.gov.uk/live/Documents/Planning%20Policy/Brownfield%20Land%20Register/Brownfield-Land-Register-Site-Plans.pdf,yes,not owned by a public authority,permissioned,outline planning permission,,52.799883,-2.116556,0.08,,,2017-11-15,,61239efef1dba3bb2d89a7a4f6e1260c13a7b12cdd9804243e04de18e272ca7a
2017-11-15,local-authority-eng:STA,"Land at George Street Press and Car Park, Fancy Walk, Stafford","Land at George Street Press and Car Park, Fancy Walk, Stafford",http://www.staffordbc.gov.uk/live/Documents/Planning%20Policy/Brownfield%20Land%20Register/Brownfield-Land-Register-Site-Plans.pdf,yes,mixed ownership,permissioned,full planning permission,,52.815131,-2.120266,0.18,,,2017-11-15,,61239efef1dba3bb2d89a7a4f6e1260c13a7b12cdd9804243e04de18e272ca7a
2017-11-15,local-authority-eng:STA,"Land at Rock House Drive, Barlaston","Land at Rock House Drive, Barlaston",http://www.staffordbc.gov.uk/live/Documents/Planning%20Policy/Brownfield%20Land%20Register/Brownfield-Land-Register-Site-Plans.pdf,yes,not owned by a public authority,permissioned,full planning permission,,52.94136,-2.166388,0.35,,,2017-11-15,,61239efef1dba3bb2d89a7a4f6e1260c13a7b12cdd9804243e04de18e272ca7a
2017-11-15,local-authority-eng:STA,"Land at Silkmore Lane, Stafford","Land at Silkmore Lane, Stafford",http://www.staffordbc.gov.uk/live/Documents/Planning%20Policy/Brownfield%20Land%20Register/Brownfield-Land-Register-Site-Plans.pdf,yes,mixed ownership,permissioned,full planning permission,,52.789296,-2.105833,0.5,,,2017-11-15,,61239efef1dba3bb2d89a7a4f6e1260c13a7b12cdd9804243e04de18e272ca7a
2017-11-15,local-authority-eng:STA,"Land at Walton Garage Car Park, Milford Road","Land at Walton Garage Car Park, Milford Road",http://www.staffordbc.gov.uk/live/Documents/Planning%20Policy/Brownfield%20Land%20Register/Brownfield-Land-Register-Site-Plans.pdf,yes,not owned by a public authority,permissioned,reserved matters approval,,52.78873,-2.068743,0.34,,,2017-11-15,,61239efef1dba3bb2d89a7a4f6e1260c13a7b12cdd9804243e04de18e272ca7a
2017-11-15,local-authority-eng:STA,"Land at Yarnfield Park, Yarnfield","Land at Yarnfield Park, Yarnfield",http://www.staffordbc.gov.uk/live/Documents/Planning%20Policy/Brownfield%20Land%20Register/Brownfield-Land-Register-Site-Plans.pdf,yes,not owned by a public authority,permissioned,outline planning permission,,52.894444,-2.199392,2.85,,,2017-11-15,,61239efef1dba3bb2d89a7a4f6e1260c13a7b12cdd9804243e04de18e272ca7a
2017-11-15,local-authority-eng:STA,"Land SCC Development Service Parcel 4, Riverway, Stafford","Land SCC Development Service Parcel 4, Riverway, Stafford",http://www.staffordbc.gov.uk/live/Documents/Planning%20Policy/Brownfield%20Land%20Register/Brownfield-Land-Register-Site-Plans.pdf,yes,owned by a public authority,permissioned,full planning permission,,52.80527,-2.107118,0.18,,,2017-11-15,,61239efef1dba3bb2d89a7a4f6e1260c13a7b12cdd9804243e04de18e272ca7a
2017-11-15,local-authority-eng:STA,"Lichfield House, 24a Lovatt Street, Stafford","Lichfield House, 24a Lovatt Street, Stafford",http://www.staffordbc.gov.uk/live/Documents/Planning%20Policy/Brownfield%20Land%20Register/Brownfield-Land-Register-Site-Plans.pdf,yes,not owned by a public authority,permissioned,full planning permission,,52.816048,-2.121025,0.08,,,2017-11-15,,61239efef1dba3bb2d89a7a4f6e1260c13a7b12cdd9804243e04de18e272ca7a
2017-11-15,local-authority-eng:STA,"Rickerscote Arms, Rickerscote Road, Stafford","Rickerscote Arms, Rickerscote Road, Stafford",http://www.staffordbc.gov.uk/live/Documents/Planning%20Policy/Brownfield%20Land%20Register/Brownfield-Land-Register-Site-Plans.pdf,yes,not owned by a public authority,permissioned,outline planning permission,,52.783869,-2.106379,0.37,,,2017-11-15,,61239efef1dba3bb2d89a7a4f6e1260c13a7b12cdd9804243e04de18e272ca7a
2017-11-15,local-authority-eng:STA,"Sandon Road Motors, Sandon Road","Sandon Road Motors, Sandon Road",http://www.staffordbc.gov.uk/live/Documents/Planning%20Policy/Brownfield%20Land%20Register/Brownfield-Land-Register-Site-Plans.pdf,yes,not owned by a public authority,permissioned,outline planning permission,,52.813826,-2.117733,0.3,,,2017-11-15,,61239efef1dba3bb2d89a7a4f6e1260c13a7b12cdd9804243e04de18e272ca7a
2017-11-15,local-authority-eng:STA,"The Albridge Hotel, 72-73 Wolverhampton Road, Stafford","The Albridge Hotel, 72-73 Wolverhampton Road, Stafford",http://www.staffordbc.gov.uk/live/Documents/Planning%20Policy/Brownfield%20Land%20Register/Brownfield-Land-Register-Site-Plans.pdf,yes,not owned by a public authority,permissioned,full planning permission,,52.799804,-2.115949,0.09,,,2017-11-15,,61239efef1dba3bb2d89a7a4f6e1260c13a7b12cdd9804243e04de18e272ca7a
2017-11-15,local-authority-eng:STA,"The Whitehouse, Chapel Street, Stafford","The Whitehouse, Chapel Street, Stafford",http://www.staffordbc.gov.uk/live/Documents/Planning%20Policy/Brownfield%20Land%20Register/Brownfield-Land-Register-Site-Plans.pdf,yes,not owned by a public authority,permissioned,full planning permission,,52.807637,-2.11945,0.04,,,2017-11-15,,61239efef1dba3bb2d89a7a4f6e1260c13a7b12cdd9804243e04de18e272ca7a
2017-11-15,local-authority-eng:STA,"Whitebridge Lane, Stone, Staffordshire","Whitebridge Lane, Stone, Staffordshire",http://www.staffordbc.gov.uk/live/Documents/Planning%20Policy/Brownfield%20Land%20Register/Brownfield-Land-Register-Site-Plans.pdf,yes,not owned by a public authority,permissioned,outline planning permission,,52.910329,-2.159586,0.36,,,2017-11-15,,61239efef1dba3bb2d89a7a4f6e1260c13a7b12cdd9804243e04de18e272ca7a
