entry-date,organisation,site,site-plan-url,latitude,longitude,hectares,minimum-net-dwellings,maximum-net-dwellings,start-date,end-date,resource
2017-12-21,local-authority-eng:RYE,Kirbymoorside-01,https://www.ryedale.gov.uk/images/PDF/planning/Old_Brickworks_North_of_Swineherd_Lane_Kirkbymoorside.pdf,54.27026,-0.922285,0.38,,,2017-12-21,,a9d8b3891f23c464433c54c15e77810976afa6456acde30830dbfd102448e494
2017-12-21,local-authority-eng:RYE,Kirbymoorside-04,https://www.ryedale.gov.uk/images/PDF/planning/Russells_New_Road_Kirkbymoorside.pdf,54.265857,-0.929952,0.64,,,2017-12-21,,a9d8b3891f23c464433c54c15e77810976afa6456acde30830dbfd102448e494
2017-12-21,local-authority-eng:RYE,Malton-02,https://www.ryedale.gov.uk/images/PDF/planning/Ryedale_House_Malton.pdf,54.139191,-0.789411,1.4,,,2017-12-21,,a9d8b3891f23c464433c54c15e77810976afa6456acde30830dbfd102448e494
2017-12-21,local-authority-eng:RYE,Norton-07,https://www.ryedale.gov.uk/images/PDF/planning/ATS_car_workshop_North_of_Commercial_Street_Norton.pdf,54.132817,-0.786712,0.74,,,2017-12-21,,a9d8b3891f23c464433c54c15e77810976afa6456acde30830dbfd102448e494
2017-12-21,local-authority-eng:RYE,Old_Malton-02,https://www.ryedale.gov.uk/images/PDF/planning/Former_Highways_Depot_Westgate_Old_Malton.pdf,54.145702,-0.780027,0.46,,,2017-12-21,,a9d8b3891f23c464433c54c15e77810976afa6456acde30830dbfd102448e494
2017-12-21,local-authority-eng:RYE,Pickering-02,https://www.ryedale.gov.uk/images/PDF/planning/FC_Site_Land_south_of_Outgang_Lane_North_of_Crossgates_Lane_Pickering.pdf,54.241593,-0.773682,0.48,,,2017-12-21,,a9d8b3891f23c464433c54c15e77810976afa6456acde30830dbfd102448e494
