entry-date,organisation,site,latitude,longitude,hectares,minimum-net-dwellings,maximum-net-dwellings,start-date,end-date,resource
2017-12-21,local-authority-eng:RYE,Kirbymoorside-01,54.270260,-0.922285,0.38,,,2017-12-21,,a9d8b3891f23c464433c54c15e77810976afa6456acde30830dbfd102448e494
2017-12-21,local-authority-eng:RYE,Kirbymoorside-04,54.265857,-0.929952,0.64,,,2017-12-21,,a9d8b3891f23c464433c54c15e77810976afa6456acde30830dbfd102448e494
2017-12-21,local-authority-eng:RYE,Malton-02,54.139191,-0.789411,1.40,,,2017-12-21,,a9d8b3891f23c464433c54c15e77810976afa6456acde30830dbfd102448e494
2017-12-21,local-authority-eng:RYE,Norton-07,54.132817,-0.786712,0.74,,,2017-12-21,,a9d8b3891f23c464433c54c15e77810976afa6456acde30830dbfd102448e494
2017-12-21,local-authority-eng:RYE,Old_Malton-02,54.145702,-0.780027,0.46,,,2017-12-21,,a9d8b3891f23c464433c54c15e77810976afa6456acde30830dbfd102448e494
2017-12-21,local-authority-eng:RYE,Pickering-02,54.241593,-0.773682,0.48,,,2017-12-21,,a9d8b3891f23c464433c54c15e77810976afa6456acde30830dbfd102448e494
