entry-date,organisation,site,site-address,site-plan-url,deliverable,ownership,planning-permission-status,planning-permission-type,hazardous-substances,latitude,longitude,hectares,minimum-net-dwellings,maximum-net-dwellings,start-date,end-date,resource
2017-12-21,local-authority-eng:RYE,Kirbymoorside-01,"Old Brickworks (southern part), North of Swineherd Lane, Kirkbymoorside",https://www.ryedale.gov.uk/images/PDF/planning/Old_Brickworks_North_of_Swineherd_Lane_Kirkbymoorside.pdf,yes,not owned by a public authority,pending decision,,,54.270245,-0.922272,0.38,,,2017-12-21,,a9d8b3891f23c464433c54c15e77810976afa6456acde30830dbfd102448e494
2017-12-21,local-authority-eng:RYE,Kirbymoorside-04,"Former Russells (western part), New Road, Kirkbymoorside",https://www.ryedale.gov.uk/images/PDF/planning/Russells_New_Road_Kirkbymoorside.pdf,yes,not owned by a public authority,permissioned,reserved matters approval,,54.265842,-0.929939,0.64,,,2017-12-21,,a9d8b3891f23c464433c54c15e77810976afa6456acde30830dbfd102448e494
2017-12-21,local-authority-eng:RYE,Malton-02,"Ryedale House, Old Malton Road, Malton",https://www.ryedale.gov.uk/images/PDF/planning/Ryedale_House_Malton.pdf,yes,owned by a public authority,not permissioned,,,54.139174,-0.7894,1.4,,,2017-12-21,,a9d8b3891f23c464433c54c15e77810976afa6456acde30830dbfd102448e494
2017-12-21,local-authority-eng:RYE,Norton-07,"Former ATS (Car Workshop), north of Commercial Street, Norton",https://www.ryedale.gov.uk/images/PDF/planning/ATS_car_workshop_North_of_Commercial_Street_Norton.pdf,,not owned by a public authority,permissioned,full planning permission,,54.1328,-0.786701,0.74,,,2017-12-21,,a9d8b3891f23c464433c54c15e77810976afa6456acde30830dbfd102448e494
2017-12-21,local-authority-eng:RYE,Old_Malton-02,"Former Highways depot, Westgate, Old Malton",https://www.ryedale.gov.uk/images/PDF/planning/Former_Highways_Depot_Westgate_Old_Malton.pdf,yes,owned by a public authority,permissioned,reserved matters approval,,54.145685,-0.780016,0.46,,,2017-12-21,,a9d8b3891f23c464433c54c15e77810976afa6456acde30830dbfd102448e494
2017-12-21,local-authority-eng:RYE,Pickering-02,"Land South of Outgang Road, North of Crossgates Lane, Pickering",https://www.ryedale.gov.uk/images/PDF/planning/FC_Site_Land_south_of_Outgang_Lane_North_of_Crossgates_Lane_Pickering.pdf,yes,owned by a public authority,not permissioned,,,54.241577,-0.773669,0.48,,,2017-12-21,,a9d8b3891f23c464433c54c15e77810976afa6456acde30830dbfd102448e494
